Location Name,Latitude,Longitude
Kuala Lumpur,3.139,101.6869
Kuantan,3.8163,103.326
George Town,5.4141,100.3288
LRT Kelana Jaya Station,3.1013,101.5807
MRT Kajang Station,2.9947,101.79
Butterworth Station,5.3991,100.3653
Johor Bahru,1.4927,103.7414
